{
  "name": "Singapore Monopoly",
  "subtitle": "Geospatial Voxel World",
  "scene": {
    "bounds": {
      "minLon": 103.6, "maxLon": 104.05, "minLat": 1.20, "maxLat": 1.48
    },
    "grid": { "width": 450, "height": 280, "voxelSize": 1.5 },
    "polygons": [
      [[103.63, 1.33], [103.60, 1.31], [103.61, 1.29], [103.63, 1.26], [103.65, 1.27], [103.68, 1.29], [103.70, 1.30], [103.74, 1.28], [103.78, 1.27], [103.82, 1.26], [103.85, 1.27], [103.88, 1.29], [103.92, 1.30], [103.94, 1.31], [103.99, 1.34], [104.02, 1.35], [104.03, 1.38], [104.00, 1.40], [103.96, 1.39], [103.91, 1.42], [103.88, 1.41], [103.84, 1.45], [103.80, 1.47], [103.76, 1.45], [103.73, 1.44], [103.70, 1.42], [103.67, 1.40], [103.65, 1.36]],
      [[103.67, 1.28], [103.69, 1.25], [103.72, 1.25], [103.73, 1.27], [103.71, 1.29]],
      [[103.81, 1.25], [103.83, 1.25], [103.84, 1.24], [103.82, 1.24]],
      [[103.95, 1.41], [103.98, 1.42], [103.99, 1.40], [103.95, 1.40]],
      [[104.02, 1.42], [104.06, 1.42], [104.06, 1.39], [104.02, 1.40]]
    ],
    "mainPolygonIndex": 0,
    "colors": {
      "groups": { "Brown": "#e1b12c", "Light Blue": "#74b9ff", "Pink": "#fd79a8", "Orange": "#e17055", "Red": "#d63031", "Yellow": "#fbc531", "Green": "#00b894", "Dark Blue": "#0984e3", "Station": "#636e72", "Vehicle": "#b2bec3" },
      "cars": ["#ff7675", "#fdcb6e", "#74b9ff", "#55efc4", "#a29bfe", "#ffeaa7", "#ff9ff3"],
      "pedestrians": ["#81ecec", "#fab1a0", "#74b9ff", "#a29bfe", "#ffeaa7"]
    },
    "players": [
      { "id": 0, "phone": null, "name": "Player 1", "colorHex": "#ff4757", "css": "#ff4757", "cash": 1500, "pos": 0, "mesh": null },
      { "id": 1, "phone": null, "name": "Player 2", "colorHex": "#0984e3", "css": "#0984e3", "cash": 1500, "pos": 0, "mesh": null },
      { "id": 2, "phone": null, "name": "Player 3", "colorHex": "#00b894", "css": "#00b894", "cash": 1500, "pos": 0, "mesh": null }
    ]
  },
  "type": "FeatureCollection",
  "features": [
    { "type": "Feature", "geometry": { "type": "Point", "coordinates": [103.8298, 1.2494] }, "properties": { "id": "sentosa", "name": "Sentosa Island", "price": 120, "group": "Light Blue", "type": "property", "index": 0 } },
    { "type": "Feature", "geometry": { "type": "Point", "coordinates": [103.8438, 1.2848] }, "properties": { "id": "chinatown", "name": "Chinatown", "price": 180, "group": "Orange", "type": "property", "index": 1 } },
    { "type": "Feature", "geometry": { "type": "Point", "coordinates": [103.8443, 1.2905] }, "properties": { "id": "clarke", "name": "Clarke Quay", "price": 140, "group": "Pink", "type": "property", "index": 2 } },
    { "type": "Feature", "geometry": { "type": "Point", "coordinates": [103.8610, 1.2920] }, "properties": { "id": "car", "name": "F1 Pit Building (Car)", "price": 250, "group": "Vehicle", "type": "vehicle", "index": 3 } },
    { "type": "Feature", "geometry": { "type": "Point", "coordinates": [103.8523, 1.2830] }, "properties": { "id": "raffles", "name": "Raffles Place", "price": 320, "group": "Green", "type": "property", "index": 4 } },
    { "type": "Feature", "geometry": { "type": "Point", "coordinates": [103.8545, 1.2868] }, "properties": { "id": "merlion", "name": "Merlion Park", "price": 300, "group": "Green", "type": "property", "index": 5 } },
    { "type": "Feature", "geometry": { "type": "Point", "coordinates": [103.8643, 1.2816] }, "properties": { "id": "gbtb", "name": "Gardens by the Bay", "price": 350, "group": "Dark Blue", "type": "property", "index": 6 } },
    { "type": "Feature", "geometry": { "type": "Point", "coordinates": [103.8590, 1.2834] }, "properties": { "id": "mbs", "name": "Marina Bay Sands", "price": 400, "group": "Dark Blue", "type": "property", "index": 7 } },
    { "type": "Feature", "geometry": { "type": "Point", "coordinates": [103.8680, 1.2720] }, "properties": { "id": "heli", "name": "Marina South (Helicopter)", "price": 350, "group": "Vehicle", "type": "vehicle", "index": 8 } },
    { "type": "Feature", "geometry": { "type": "Point", "coordinates": [103.8558, 1.3008] }, "properties": { "id": "bugis", "name": "Bugis", "price": 260, "group": "Yellow", "type": "property", "index": 9 } },
    { "type": "Feature", "geometry": { "type": "Point", "coordinates": [103.8501, 1.3068] }, "properties": { "id": "littleindia", "name": "Little India", "price": 200, "group": "Orange", "type": "property", "index": 10 } },
    { "type": "Feature", "geometry": { "type": "Point", "coordinates": [103.8318, 1.3038] }, "properties": { "id": "orchard", "name": "Orchard Road", "price": 280, "group": "Red", "type": "property", "index": 11 } },
    { "type": "Feature", "geometry": { "type": "Point", "coordinates": [103.7406, 1.3328] }, "properties": { "id": "jurong", "name": "Jurong East MRT", "price": 200, "group": "Station", "type": "station", "index": 12 } },
    { "type": "Feature", "geometry": { "type": "Point", "coordinates": [103.8670, 1.4160] }, "properties": { "id": "aircraft", "name": "Seletar Airport (Aircraft)", "price": 450, "group": "Vehicle", "type": "vehicle", "index": 13 } },
    { "type": "Feature", "geometry": { "type": "Point", "coordinates": [103.9893, 1.3601] }, "properties": { "id": "changi", "name": "Changi Airport", "price": 200, "group": "Station", "type": "station", "index": 14 } },
    { "type": "Feature", "geometry": { "type": "Point", "coordinates": [103.7930, 1.4040] }, "properties": { "id": "zoo", "name": "Singapore Zoo", "price": 300, "group": "Yellow", "type": "property", "index": 15 } },
    { "type": "Feature", "geometry": { "type": "Point", "coordinates": [103.8180, 1.2580] }, "properties": { "id": "oceanarium", "name": "S.E.A. Aquarium", "price": 250, "group": "Light Blue", "type": "property", "index": 16 } },
    { "type": "Feature", "geometry": { "type": "Point", "coordinates": [103.7650, 1.2720] }, "properties": { "id": "port", "name": "PSA Container Port", "price": 200, "group": "Station", "type": "station", "index": 17 } }
  ]
}
